,City,Cloudiness,Country,Date,Humidity,Lat,Lng,Max Temp,Wind Speed
0,East London,20,ZA,1578469445,88,-33.02,27.91,75.2,8.05
1,Rikitea,0,PF,1578469461,80,-23.12,-134.97,76.87,18.32
2,Hambantota,40,LK,1578469462,70,6.12,81.12,87.8,12.75
3,Atar,7,MR,1578469462,18,20.52,-13.05,52.02,12.59
4,Cabo San Lucas,100,MX,1578469202,86,22.89,-109.91,68.0,0.96
5,Tuatapere,91,NZ,1578469462,82,-46.13,167.69,57.0,1.99
6,Longyearbyen,75,NO,1578469462,94,78.22,15.63,32.0,27.51
7,Mar del Plata,0,AR,1578469463,46,-46.43,-67.52,52.18,29.86
8,Zatoka,75,PL,1578469463,77,50.04,20.52,36.0,1.12
9,Jamestown,0,AU,1578469463,19,-33.21,138.6,90.21,7.09
10,Talnakh,75,RU,1578469463,84,69.49,88.39,3.2,20.13
11,Butaritari,100,KI,1578469463,77,3.07,172.79,85.15,16.8
12,Vitim,100,RU,1578469464,94,59.44,112.57,13.26,6.82
13,Cape Town,40,ZA,1578469464,73,-33.93,18.42,78.01,13.87
14,Albany,40,US,1578469464,73,42.65,-73.75,30.0,3.36
15,Zhangye,100,CN,1578469464,37,38.94,100.46,29.61,7.31
16,Ushuaia,90,AR,1578469347,93,-54.81,-68.31,44.6,12.75
17,Busselton,58,AU,1578469465,23,-33.64,115.35,80.01,22.46
18,Ambilobe,100,MG,1578469465,67,-13.19,49.05,87.26,4.94
19,Hasaki,75,JP,1578469465,100,35.73,140.83,46.4,5.82
20,Mindelheim,79,DE,1578469466,74,48.05,10.49,34.0,9.17
21,Inhambane,40,MZ,1578469466,62,-23.87,35.38,89.6,9.17
22,Mataura,100,NZ,1578469466,82,-46.19,168.86,57.0,1.99
23,Punta Arenas,20,CL,1578469466,80,-53.16,-70.91,41.0,9.17
24,Yakeshi,100,CN,1578469466,100,49.28,120.73,-9.83,3.04
25,Kerchevskiy,95,RU,1578469467,95,59.95,56.29,10.6,7.38
26,Kavieng,100,PG,1578469467,72,-2.57,150.8,83.46,7.67
27,Kapaa,90,US,1578469467,64,22.08,-159.32,75.2,23.04
28,Ucluelet,75,CA,1578469467,81,48.94,-125.55,43.0,5.99
29,Saint-Philippe,90,CA,1578469467,97,45.36,-73.48,32.0,5.82
30,Bredasdorp,20,ZA,1578469468,65,-34.53,20.04,77.0,11.41
31,Linxia,0,CN,1578469329,64,35.6,103.21,27.52,4.65
32,Qaanaaq,66,GL,1578469468,96,77.48,-69.36,-27.36,1.77
33,Avarua,86,CK,1578469468,88,-21.21,-159.78,77.0,2.24
34,Lata,100,IN,1578469468,99,30.78,78.62,15.64,12.62
35,Taoudenni,0,ML,1578469469,17,22.68,-3.98,58.06,7.99
36,Airai,100,TL,1578469469,89,-8.93,125.41,72.37,2.73
37,Gat,59,SN,1578469469,50,14.69,-16.54,64.4,4.7
38,Luderitz,0,NA,1578469469,89,-26.65,15.16,63.05,5.75
39,Kikwit,100,CD,1578469469,90,-5.04,18.82,74.64,6.76
40,Lebu,75,ET,1578469470,48,8.96,38.73,64.4,16.11
41,Vaini,40,IN,1578469470,48,15.34,74.49,84.2,4.7
42,Barrow,0,AR,1578469470,43,-38.31,-60.23,67.75,12.35
43,Provideniya,0,RU,1578469470,88,64.42,-173.23,-10.95,1.23
44,Port Hawkesbury,75,CA,1578469470,92,45.62,-61.36,28.0,4.7
45,Iqaluit,90,CA,1578469471,68,63.75,-68.52,-20.0,3.36
46,Hovd,75,NO,1578469471,73,63.83,10.7,44.01,14.99
47,Haifa,75,IL,1578469468,93,32.82,35.0,48.2,10.29
48,Pangnirtung,100,CA,1578469471,66,66.15,-65.72,-34.91,1.7
49,Tochtepec,21,MX,1578469471,73,18.84,-97.82,52.0,3.0
50,Pringsewu,85,ID,1578469472,86,-5.36,104.98,80.22,3.38
51,Bronnoysund,75,NO,1578469472,80,65.46,12.2,41.0,24.16
52,Hobart,40,AU,1578469430,72,-42.88,147.33,66.99,18.34
53,Buckingham,20,GB,1578469472,93,52.0,-0.98,52.0,11.41
54,Severo-Kurilsk,85,RU,1578469473,89,50.68,156.12,19.47,12.5
55,Two Rivers,1,US,1578469473,56,44.15,-87.57,17.6,19.46
56,Teya,5,MX,1578469473,88,21.05,-89.07,68.0,3.0
57,Katsuura,75,JP,1578469473,87,33.93,134.5,57.2,18.34
58,Sao Joao da Barra,100,BR,1578469473,91,-21.64,-41.05,77.13,10.58
59,Odienne,0,CI,1578469474,21,9.51,-7.57,79.05,3.11
60,Faanui,45,PF,1578469474,80,-16.48,-151.75,81.91,21.41
61,Isangel,40,VU,1578469474,61,-19.55,169.27,80.6,8.05
62,Nhlangano,0,SZ,1578469474,35,-27.11,31.2,82.8,6.22
63,Nanortalik,88,GL,1578469474,81,60.14,-45.24,24.28,31.12
64,Pahalgam,67,IN,1578469475,82,34.03,75.33,11.86,5.77
65,Pochutla,0,MX,1578469475,78,15.74,-96.47,70.0,4.23
66,Fort Nelson,90,CA,1578469475,74,58.81,-122.69,-22.0,3.33
67,New Norfolk,40,AU,1578469475,72,-42.78,147.06,66.99,18.34
68,Bethel,1,US,1578469249,68,60.79,-161.76,-18.4,13.87
69,Kenai,1,US,1578469476,82,60.55,-151.26,-8.0,3.36
70,Moth,1,IN,1578469476,57,25.73,78.95,73.78,1.86
71,Gerash,0,IR,1578469476,71,27.67,54.14,55.4,4.61
72,Port Elizabeth,40,US,1578469476,92,39.31,-74.98,35.01,5.82
73,Hilo,20,US,1578469476,57,19.71,-155.08,78.8,13.87
74,Smolenka,99,PL,1578469477,94,54.15,22.76,32.0,12.46
75,Tuktoyaktuk,100,CA,1578469477,96,69.44,-133.03,-12.89,11.23
76,Velyka Bahachka,31,UA,1578469477,71,49.79,33.72,28.51,2.75
77,Aksha,100,RU,1578469477,85,50.28,113.29,1.92,2.13
78,Kaitangata,100,NZ,1578469478,76,-46.28,169.85,55.99,5.99
79,Pyu,68,MM,1578469478,35,18.48,96.43,88.48,4.45
80,Isla Mujeres,5,MX,1578469478,77,21.23,-86.73,66.2,6.93
81,Sabang,100,PH,1578469479,70,13.8,121.11,78.71,9.26
82,Coquimbo,40,CL,1578469479,93,-29.95,-71.34,59.0,3.36
83,Atuona,44,PF,1578469479,78,-9.8,-139.03,81.43,17.96
84,Magistralnyy,97,RU,1578469479,92,56.17,107.45,11.16,2.46
85,Amarante do Maranhao,100,BR,1578469480,97,-5.57,-46.74,70.74,1.43
86,Tiznit,75,MA,1578469480,33,29.7,-9.73,51.51,2.17
87,Mayo,90,CA,1578469480,63,63.59,-135.9,-11.2,5.82
88,Manoel Urbano,18,BR,1578469480,79,-8.84,-69.26,69.93,2.1
89,Saskylakh,82,RU,1578469480,96,71.97,114.09,-3.33,7.09
90,Tasiilaq,0,GL,1578469481,46,65.61,-37.64,-2.18,25.32
91,Koulikoro,0,ML,1578469481,36,12.86,-7.56,60.8,4.7
92,Deori,2,IN,1578469481,53,23.12,78.69,79.21,11.5
93,Upernavik,100,GL,1578469481,72,72.79,-56.15,-13.23,3.31
94,Hamilton,75,CA,1578469351,86,43.26,-79.87,34.0,12.75
95,Dunedin,100,NZ,1578469329,72,-45.87,170.5,54.23,13.13
96,Puerto Ayora,4,EC,1578469482,80,-0.74,-90.35,75.99,5.99
97,Mkushi,100,ZM,1578469482,87,-13.61,29.4,70.52,8.08
98,Xiaolingwei,75,CN,1578469482,65,32.03,118.85,46.0,4.47
99,Husavik,0,CA,1578469482,84,50.56,-96.99,-11.99,3.2
100,Fairbanks,20,US,1578469225,65,64.84,-147.72,-26.0,0.81
101,Houma,92,CN,1578469328,83,35.63,111.36,34.97,4.92
102,Liwale,100,TZ,1578469483,63,-9.8,37.92,84.49,7.09
103,Grindavik,75,IS,1578469483,50,63.84,-22.43,30.2,55.25
104,Shache,81,CN,1578469484,50,38.42,77.24,33.67,3.18
105,Bluff,99,AU,1578469484,26,-23.58,149.07,85.55,4.97
106,Hermanus,0,ZA,1578469484,85,-34.42,19.24,73.99,5.99
107,Piranshahr,33,IR,1578469484,61,36.7,45.14,30.22,8.55
108,Yellowknife,5,CA,1578469352,65,62.45,-114.38,-34.01,3.65
109,Mataya,93,KE,1578469485,45,0.36,34.17,83.26,5.12
110,Harrisburg,90,US,1578469485,85,40.27,-76.89,28.4,5.75
111,Batagay-Alyta,100,RU,1578469485,75,67.8,130.41,-10.07,3.11
112,Beringovskiy,100,RU,1578469485,98,63.05,179.32,2.17,7.94
113,Oranjemund,71,ZA,1578469485,57,-28.55,16.43,71.08,10.02
114,Mount Gambier,0,AU,1578469486,27,-37.83,140.78,86.0,17.22
115,Port Alfred,95,ZA,1578469486,96,-33.59,26.89,73.99,4.0
116,Rodrigues Alves,100,BR,1578469486,77,-7.74,-72.65,69.76,1.77
117,Konya,75,TR,1578469371,74,37.87,32.48,37.4,11.41
118,Torbay,90,CA,1578469486,92,47.66,-52.73,27.0,13.87
119,Norman Wells,5,CA,1578469487,63,65.28,-126.83,-47.2,2.24
120,Bambous Virieux,40,MU,1578469487,79,-20.34,57.76,84.99,9.17
121,Kariba,96,ZW,1578469487,68,-16.53,28.78,82.17,4.9
122,Castro,75,CL,1578469487,87,-42.48,-73.76,48.2,8.05
123,Tambacounda,4,SN,1578469487,28,13.77,-13.67,59.0,6.93
124,Dhidhdhoo,33,MV,1578469488,71,6.88,73.1,82.76,10.51
125,Carnarvon,95,ZA,1578469488,63,-30.97,22.13,72.12,15.37
126,Port Hardy,75,CA,1578469488,89,50.7,-127.42,35.6,6.93
127,Gizo,75,IL,1578469488,58,31.8,34.94,54.0,24.16
128,Garowe,100,SO,1578469488,31,8.41,48.48,85.39,14.36
129,Ponta do Sol,99,BR,1578469489,92,-20.63,-46.0,69.55,1.3
130,Kodiak,1,US,1578469489,86,39.95,-94.76,33.01,6.93
131,Qasigiannguit,47,GL,1578469489,63,68.82,-51.19,-5.8,14.99
132,Lillooet,40,CA,1578469489,100,50.69,-121.94,33.8,5.82
133,Hithadhoo,94,MV,1578469490,74,-0.6,73.08,83.66,10.36
134,Kieta,100,PG,1578469490,72,-6.22,155.63,85.01,3.96
135,Chokurdakh,94,RU,1578469490,98,70.62,147.9,-24.72,7.25
136,Ilulissat,47,GL,1578469490,63,69.22,-51.1,-5.8,14.99
137,Eyl,98,SO,1578469490,74,7.98,49.82,78.89,19.33
138,Caconda,100,AO,1578469490,85,-13.73,15.06,68.41,8.48
139,Sinnamary,68,GF,1578469491,80,5.38,-52.96,80.56,18.77
140,Nemuro,75,JP,1578469491,86,43.32,145.57,26.6,5.82
141,Oranjestad,20,AW,1578469360,83,12.52,-70.03,78.8,11.41
142,Mount Pleasant,1,US,1578469491,64,33.16,-94.97,41.0,5.82
143,Zhezkazgan,90,KZ,1578469492,92,47.8,67.71,17.6,2.24
144,Narsaq,100,GL,1578469492,61,60.91,-46.05,14.0,3.36
145,Huarmey,5,PE,1578469492,93,-10.07,-78.15,63.72,1.01
146,Mejorada del Campo,61,ES,1578469492,86,40.4,-3.49,46.0,4.7
147,Waipawa,100,NZ,1578469492,72,-39.94,176.59,55.99,1.99
148,Marfino,90,RU,1578469493,93,56.07,37.56,35.01,13.42
149,Svetlogorsk,40,RU,1578469493,85,53.14,59.15,21.2,11.18
150,Buchanan,20,LR,1578469493,94,5.88,-10.05,71.6,5.82
151,Lisala,28,CD,1578469494,25,2.15,21.52,95.86,2.19
152,Zhetysay,5,KZ,1578469494,54,40.73,68.3,42.78,3.87
153,Djougou,0,BJ,1578469494,26,9.71,1.67,71.6,8.05
154,Ostrovnoy,100,RU,1578469494,87,68.05,39.51,33.85,26.62
155,Malabo,87,CD,1578469495,53,1.56,30.43,81.48,5.77
156,Xinyang,100,CN,1578469495,87,32.13,114.07,35.82,8.84
157,Rock Springs,1,US,1578469495,58,41.59,-109.2,24.8,5.82
158,Lompoc,90,US,1578469495,93,34.64,-120.46,53.01,18.88
159,Chanthaburi,20,TH,1578469496,70,12.61,102.11,91.99,9.17
160,Ribeira Grande,75,PT,1578469496,93,38.52,-28.7,64.4,16.11
161,Ranong,75,TH,1578469496,59,9.96,98.62,89.6,9.17
162,Orodara,0,BF,1578469496,45,10.98,-4.92,64.4,2.24
163,Mariental,75,BR,1578469496,100,-25.72,-49.65,69.01,4.7
164,Namibe,84,AO,1578469497,78,-15.19,12.15,74.53,3.13
165,Nagato,75,JP,1578469497,62,34.35,131.14,53.6,19.46
166,Sabha,0,LY,1578469497,44,27.03,14.43,49.68,6.44
167,Bodmin,75,GB,1578469497,100,50.47,-4.72,50.0,9.17
168,Nishihara,20,JP,1578469498,93,35.74,139.53,48.99,1.12
169,Sulangan,98,PH,1578469498,72,11.14,123.72,81.52,7.05
170,Semey,31,KZ,1578469498,84,50.41,80.25,-0.4,4.47
171,Kimbe,100,PG,1578469498,92,-5.56,150.15,77.52,2.28
172,Arraial do Cabo,100,BR,1578469499,89,-22.97,-42.02,78.03,6.82
173,Richards Bay,0,ZA,1578469499,73,-28.77,32.06,80.29,22.26
174,Souillac,100,FR,1578469499,100,45.6,-0.6,50.0,5.82
175,Poum,20,MK,1578469499,6,41.28,20.71,37.4,4.7
176,Klyuchi,99,RU,1578469499,86,52.25,79.17,12.61,3.4
177,Berlevag,90,NO,1578469500,78,70.86,29.09,33.8,28.86
178,Lyantonde,100,UG,1578469500,81,-0.41,31.15,71.44,5.06
179,Dwarka,90,IN,1578469500,93,28.58,77.04,64.99,4.7
180,Hamina,90,FI,1578469500,93,60.57,27.2,39.2,19.46
181,Bolekhiv,0,UA,1578469500,92,49.07,23.86,32.0,5.3
182,Kibondo,100,TZ,1578469501,97,-3.59,30.72,64.92,4.05
183,Illapel,0,CL,1578469501,82,-31.63,-71.17,47.73,2.26
184,Nouadhibou,86,MR,1578469501,35,20.93,-17.03,57.2,20.8
185,Udayagiri,20,IN,1578469502,51,12.32,76.68,82.4,3.36
186,Haines Junction,100,CA,1578469502,98,60.75,-137.51,-14.3,4.85
187,Khatanga,99,RU,1578469502,95,71.98,102.47,2.26,9.64
188,Alofi,21,NU,1578469423,83,-19.06,-169.92,77.0,16.11
189,Polunochnoye,99,RU,1578469503,85,60.87,60.43,17.26,6.6
190,Salcininkai,90,LT,1578469503,92,54.3,25.38,30.99,17.22
191,Khandbari,100,NP,1578469503,77,27.38,87.21,41.27,2.44
192,Sal Rei,75,CV,1578469504,60,16.18,-22.92,68.0,11.41
193,Hastings,100,NZ,1578469388,64,-39.64,176.84,58.53,5.32
194,Chuy,0,UY,1578469504,77,-33.69,-53.46,64.33,8.88
195,Pevek,0,RU,1578469504,88,69.7,170.27,-14.98,12.86
196,Blackwater,55,GB,1578469505,87,51.33,-0.78,54.0,10.29
197,Ust-Ordynskiy,100,RU,1578469505,92,52.8,104.75,8.6,8.95
198,Mahebourg,40,MU,1578469505,79,-20.41,57.7,84.99,9.17
199,Japura,100,ID,1578469505,89,-0.42,102.29,80.83,3.44
200,Kununurra,75,AU,1578469506,50,-15.77,128.74,95.0,8.05
201,Aykhal,75,RU,1578469506,84,65.95,111.51,-0.4,4.47
202,Tabriz,90,IR,1578469506,74,38.08,46.29,30.2,6.93
203,Znamenskoye,78,RU,1578469506,94,57.13,73.82,5.4,2.35
204,Puerto Madryn,100,AR,1578469410,38,-42.77,-65.04,60.49,6.11
205,Enshi,100,CN,1578469507,97,30.29,109.48,35.29,4.12
206,Axim,31,GH,1578469507,54,4.87,-2.24,84.81,4.72
207,Tezu,85,IN,1578469508,50,27.93,96.16,66.34,2.13
208,Samarai,100,PG,1578469508,85,-10.62,150.67,79.72,4.61
209,Cayambe,75,EC,1578469508,87,0.04,-78.14,55.4,2.24
210,Urla,75,TR,1578469508,64,38.32,26.77,44.6,26.4
211,Turayf,0,SA,1578469509,75,31.68,38.65,42.8,11.41
212,Leh,99,IN,1578469509,71,34.16,77.58,6.78,5.68
213,Canutama,100,BR,1578469509,97,-6.53,-64.38,73.71,1.9
214,Pisco,90,PE,1578469242,94,-13.71,-76.2,69.8,8.05
215,Eston,90,CA,1578469509,78,51.15,-108.75,10.0,28.86
216,Naga,100,PH,1578469510,76,13.62,123.19,79.97,12.24
217,Nikolskoye,90,RU,1578469510,84,59.7,30.79,37.4,15.66
218,Naron,75,ES,1578469510,93,43.52,-8.15,57.0,4.7
219,Chegdomyn,74,RU,1578469510,99,51.13,133.04,-7.92,1.12
220,Timizart,52,DZ,1578469510,75,36.8,4.25,55.8,12.88
221,Guerrero Negro,76,MX,1578469511,62,27.97,-114.04,59.61,6.73
222,Timiryazevskiy,40,RU,1578469511,95,47.05,39.61,32.0,15.66
223,Severobaykalsk,97,RU,1578469511,87,55.65,109.32,16.97,5.23
224,Georgetown,20,GY,1578469372,100,6.8,-58.16,75.2,4.7
225,Baie-Comeau,90,CA,1578469512,85,49.22,-68.15,14.0,4.7
226,Marsh Harbour,19,BS,1578469512,57,26.54,-77.06,71.24,14.79
227,Ahipara,46,NZ,1578469512,72,-35.17,173.16,60.94,13.94
228,Pontal do Parana,75,BR,1578469512,100,-25.67,-48.51,68.0,4.7
229,Riyadh,68,SA,1578469476,36,24.63,46.72,60.8,10.29
230,Ambatondrazaka,100,MG,1578469513,62,-17.82,48.43,80.11,1.52
231,Esso,100,RU,1578469513,93,55.93,158.7,4.62,0.56
232,Broken Hill,0,AU,1578469513,16,-31.97,141.45,98.6,11.41
233,Tiksi,77,RU,1578469513,90,71.64,128.87,-11.13,5.1
234,Sassandra,69,CI,1578469514,68,4.95,-6.09,79.95,4.34
235,Jaciara,100,BR,1578469514,93,-15.95,-54.98,71.76,6.15
236,Den Helder,90,NL,1578469514,93,52.96,4.76,53.01,20.8
237,Mookane,17,BW,1578469515,32,-23.68,26.66,90.36,15.26
238,Kawalu,100,ID,1578469515,85,-7.38,108.21,75.79,6.58
239,Noumea,75,NC,1578469515,54,-22.28,166.46,84.2,5.82
240,Clyde River,90,CA,1578469515,83,70.47,-68.59,-13.0,4.7
241,Smithers,90,CA,1578469515,85,54.78,-127.17,15.8,2.33
242,Beira,75,ES,1578469515,93,43.2,-8.36,55.99,4.7
243,Comodoro Rivadavia,0,AR,1578469516,47,-45.87,-67.48,55.4,16.11
244,Port Lincoln,0,AU,1578469516,38,-34.72,135.86,79.74,7.65
245,San Jose,0,HN,1578469268,84,14.25,-87.96,59.77,10.4
246,Kolpashevo,100,RU,1578469516,96,58.31,82.9,7.25,2.66
247,Sangar,96,RU,1578469516,98,63.92,127.47,-7.71,4.14
248,Nome,1,US,1578469517,86,30.04,-94.42,41.0,3.85
249,Russell,1,US,1578469517,57,38.9,-98.86,39.0,9.17
250,Itarantim,37,BR,1578469517,96,-15.65,-40.06,69.93,1.05
251,Carinhanha,83,BR,1578469517,97,-14.3,-43.77,69.89,1.1
252,Saint-Pierre,90,FR,1578469518,100,48.95,4.24,51.01,13.87
253,Launceston,40,AU,1578469518,50,-41.43,147.14,75.2,21.92
254,Dalvik,75,SE,1578469518,100,57.79,14.13,44.6,19.46
255,Codrington,0,AU,1578469518,54,-28.95,153.24,87.8,18.34
256,Mpika,100,ZM,1578469518,81,-11.84,31.4,71.89,2.66
257,Los Llanos de Aridane,20,ES,1578469519,63,28.66,-17.92,62.6,9.17
258,San Cristobal,78,HN,1578469519,97,14.68,-86.92,59.59,2.42
259,Visnes,75,NO,1578469519,70,59.36,5.22,45.0,28.86
260,Lavrentiya,0,RU,1578469519,93,65.58,-170.99,-11.22,3.29
261,Lorengau,100,PG,1578469519,80,-2.02,147.27,81.43,15.05
262,Quesnel,90,CA,1578469519,73,52.98,-122.49,21.2,6.93
263,Palmares do Sul,0,BR,1578469520,75,-30.26,-50.51,68.18,4.94
264,Komsomolskiy,100,RU,1578469520,99,67.55,63.78,-3.3,7.52
265,Saint George,40,GR,1578469520,48,39.45,22.34,34.0,8.05
266,Galesong,20,ID,1578469520,79,-5.32,119.37,86.0,9.17
267,Jabinyanah,20,TN,1578469520,75,35.03,10.91,46.4,6.93
268,Seddon,0,AU,1578469521,64,-37.81,144.89,80.01,20.8
269,Prince Rupert,1,CA,1578469223,92,54.32,-130.32,26.6,8.05
270,Kayes,23,ML,1578469521,17,14.44,-11.44,65.71,8.84
271,Port Augusta,0,AU,1578469522,26,-32.49,137.76,99.0,12.75
272,Dikson,100,RU,1578469522,100,73.51,80.55,-11.76,6.78
273,Hoquiam,90,US,1578469522,93,46.98,-123.89,46.0,13.87
274,Baldone,90,LV,1578469522,86,56.74,24.39,37.4,16.11
275,Aklavik,40,CA,1578469523,73,68.22,-135.01,-36.4,2.24
276,Menongue,99,AO,1578469523,81,-14.66,17.68,69.55,5.5
277,Kaduqli,86,SD,1578469523,12,11.01,29.72,85.51,15.12
278,Rocky Mountain House,100,CA,1578469521,97,52.38,-114.92,13.28,0.83
279,Mangrol,19,IN,1578469524,34,25.33,76.51,75.45,11.88
280,La Rioja,0,AR,1578469524,66,-29.41,-66.86,66.11,2.26
281,Sao Filipe,100,CV,1578469524,72,14.9,-24.5,67.08,20.92
282,Kupang,75,ID,1578469524,74,-10.16,123.6,86.0,9.17
283,Ponta Delgada,20,PT,1578469525,88,37.73,-25.67,64.4,14.99
284,Klaksvik,100,FO,1578469525,80,62.23,-6.59,35.6,32.21
285,Sijunjung,100,ID,1578469525,84,-0.69,100.95,80.19,2.82
286,Leningradskiy,0,RU,1578469525,75,69.38,178.42,-13.74,6.24
287,Yermakovskoye,100,RU,1578469525,95,53.28,92.4,15.28,2.37
288,Moroni,75,GR,1578469526,66,35.09,24.92,51.8,28.86
289,Ngunguru,100,NZ,1578469526,59,-35.62,174.5,63.0,8.01
290,Thompson,5,CA,1578469526,74,55.74,-97.86,-23.8,8.05
291,Morro Bay,90,US,1578469527,93,35.37,-120.85,51.01,5.86
292,Puerto Ayacucho,0,CO,1578469527,85,5.66,-67.63,70.34,1.59
293,Chernihiv,60,UA,1578469527,90,51.49,31.29,28.04,6.85
294,San Patricio,89,PY,1578469528,39,-26.98,-56.83,68.13,4.52
295,Kondopoga,75,RU,1578469528,93,62.21,34.27,35.6,15.66
296,La Ronge,20,CA,1578469528,74,55.1,-105.3,-27.4,2.24
297,Baoning,90,CN,1578469528,51,25.34,110.03,60.8,6.71
298,Sungairaya,100,ID,1578469528,88,0.7,108.9,80.49,5.79
299,Tres Arroyos,0,AR,1578469529,44,-38.38,-60.28,66.67,10.07
300,Nushki,0,PK,1578469529,40,29.55,66.02,45.86,4.9
301,Port Macquarie,67,AU,1578469529,78,-31.43,152.91,82.99,12.75
302,Beloha,0,MG,1578469529,25,-25.17,45.06,101.84,2.3
303,Cockburn Town,18,TC,1578469333,78,21.46,-71.14,78.42,13.4
304,Ballina,75,IE,1578469530,93,54.11,-9.15,44.01,6.93
305,Shelburne,40,CA,1578469449,74,44.08,-80.2,30.99,4.7
306,Daru,100,PG,1578469530,87,-9.07,143.21,78.51,3.58
307,Saint-Joseph,0,FR,1578469530,86,43.56,6.97,51.01,5.82
308,Coruripe,41,BR,1578469530,81,-10.12,-36.18,78.4,8.84
309,Bahia Blanca,19,AR,1578469531,30,-38.72,-62.27,68.81,4.88
310,Sitrah,20,BH,1578469532,56,26.15,50.62,68.0,4.7
311,Aden,75,YE,1578469532,55,12.79,45.03,83.48,10.18
312,Srednekolymsk,57,RU,1578469532,93,67.46,153.71,-26.28,6.22
313,Itaituba,100,BR,1578469532,98,-4.26,-55.99,72.81,1.77
314,Fortuna,90,US,1578469533,100,40.6,-124.16,46.99,8.05
315,Henties Bay,0,NA,1578469533,87,-22.12,14.28,64.99,1.99
316,Yeniseysk,94,RU,1578469533,96,58.45,92.17,11.44,2.28
317,Kruisfontein,95,ZA,1578469533,46,-34.0,24.73,85.8,5.61
318,Warwick,90,US,1578469416,86,41.7,-71.42,34.0,3.36
319,Puerto Leguizamo,62,CO,1578469534,76,-0.19,-74.78,70.61,2.86
320,Yuanping,0,CN,1578469534,45,38.72,112.71,23.52,1.99
321,Sisophon,100,KH,1578469534,37,13.59,102.97,93.88,6.49
322,Uvira,100,CD,1578469534,83,-3.41,29.14,58.15,5.95
323,Baykit,75,RU,1578469534,99,61.68,96.39,-3.14,1.25
324,Parrita,0,CR,1578469505,64,9.52,-84.33,71.6,21.92
325,Hay River,75,CA,1578469389,75,60.82,-115.79,-13.0,6.24
326,Ambon,90,FR,1578469535,100,47.55,-2.56,54.0,10.29
327,Severo-Yeniseyskiy,94,RU,1578469535,96,60.37,93.04,5.81,4.32
328,Corsicana,1,US,1578469536,55,32.09,-96.46,46.0,8.05
329,Shumskiy,97,RU,1578469536,96,54.83,99.13,14.74,0.76
330,Soyo,59,AO,1578469536,66,-6.13,12.37,86.32,1.57
331,Laguna,90,BZ,1578469536,100,16.17,-88.94,69.8,11.41
332,Maiduguri,53,NG,1578469537,24,11.84,13.15,80.69,13.62
333,Vestmannaeyjar,75,IS,1578469537,80,63.44,-20.27,30.2,50.55
334,Iquique,96,CL,1578469537,68,-20.22,-70.14,68.0,3.36
335,Almeirim,100,BR,1578469537,94,-1.53,-52.58,73.44,2.89
336,Jaisinghnagar,31,IN,1578469537,64,23.63,78.57,73.27,11.41
337,Temecula,1,US,1578469248,34,33.49,-117.15,53.01,5.82
338,Lima,75,PE,1578469538,88,-12.06,-77.04,71.6,11.41
339,Amahai,100,ID,1578469538,68,-3.31,129.0,84.38,5.46
340,Makakilo City,75,US,1578469521,83,21.35,-158.09,75.2,11.41
341,San Quintin,64,PH,1578469539,76,17.54,120.52,78.62,2.24
342,Nuuk,100,GL,1578469310,84,64.17,-51.74,-2.0,23.04
343,Primo Tapia,1,MX,1578469539,81,32.22,-116.92,54.0,1.57
344,Dourados,91,BR,1578469539,98,-22.22,-54.81,70.59,4.23
345,Rawlins,1,US,1578469539,63,41.79,-107.24,30.2,13.87
346,Portland,90,US,1578469425,68,43.66,-70.25,32.0,4.7
347,Tazovskiy,96,RU,1578469540,97,67.47,78.7,-1.01,8.79
348,La Grande,75,US,1578469540,65,45.32,-118.09,46.0,14.99
349,Pondicherry,40,ZA,1578469540,73,-34.04,18.35,78.01,13.87
350,Formosa,100,BR,1578469541,96,-15.55,-47.33,65.37,1.54
351,Hobyo,100,SO,1578469541,53,5.35,48.53,85.51,20.76
352,Vila Velha,75,BR,1578469291,83,-3.71,-38.6,86.0,10.29
353,Manikpur,42,IN,1578469541,58,25.07,81.1,71.08,5.55
354,Anchorage,40,US,1578469541,68,61.22,-149.89,-5.01,2.66
355,Samarinda,52,ID,1578469542,68,-0.5,117.14,85.44,5.95
356,Kungurtug,48,RU,1578469542,89,50.6,97.53,-4.25,1.05
357,Vao,100,EE,1578469542,84,59.1,26.19,39.34,18.9
358,Salalah,20,OM,1578469542,54,17.01,54.1,82.4,6.93
359,Luba,1,PH,1578469542,75,17.32,120.7,78.84,2.26
360,Sola,96,TZ,1578469542,57,-3.17,33.8,79.32,10.89
361,Camalu,0,MX,1578469543,5,30.85,-116.07,39.0,7.0
362,Camopi,81,GF,1578469543,99,3.17,-52.33,72.52,2.8
363,Northam,0,AU,1578469543,28,-31.65,116.67,84.2,19.46
364,Cidreira,1,BR,1578469543,70,-30.17,-50.22,73.92,8.68
365,Piuma,59,BR,1578469543,87,-20.84,-40.72,77.34,22.46
366,Wilmington,1,US,1578469394,92,39.75,-75.55,33.01,11.25
367,Seguela,17,CI,1578469544,23,7.96,-6.67,80.73,1.21
368,el Prat de Llobregat,20,ES,1578469544,75,41.32,2.1,51.01,11.41
369,Abbeville,90,FR,1578469544,100,50.11,1.83,54.0,13.87
370,Fatehpur,0,PK,1578469544,36,31.18,71.21,62.51,7.05
371,Vung Tau,100,VN,1578469545,54,10.35,107.08,86.0,14.99
372,Bali,96,CN,1578469545,71,32.29,119.4,46.0,1.01
373,Mauguio,1,FR,1578469545,93,43.62,4.01,46.0,5.82
374,Dabat,92,ET,1578469545,39,12.98,37.77,71.19,7.16
375,Necochea,0,AR,1578469546,35,-38.55,-58.74,68.0,5.99
376,Asosa,5,ET,1578469546,19,10.07,34.53,96.33,0.49
377,Omboue,82,GA,1578469546,63,-1.57,9.26,87.24,3.18
378,Cayenne,75,GF,1578469546,83,4.94,-52.33,78.8,9.17
379,Burnie,0,AU,1578469546,84,-41.05,145.91,64.99,11.01
380,Port-Gentil,40,GA,1578469546,94,-0.72,8.78,80.6,3.0
381,Aviles,75,ES,1578469547,53,43.55,-5.92,50.0,6.93
382,Puerto Madero,0,AR,1578469547,49,-34.61,-58.36,73.99,11.41
383,Half Moon Bay,90,US,1578469547,93,37.46,-122.43,53.01,7.99
384,Krasnyy Chikoy,0,RU,1578469547,89,50.36,108.75,-2.25,0.63
385,Mutis,0,CO,1578469547,79,6.23,-77.4,78.75,4.43
386,Vardo,75,US,1578469548,100,39.62,-77.74,30.0,6.04
387,Coldwater,90,US,1578469548,54,41.94,-85.0,30.99,8.05
388,Praia da Vitoria,20,PT,1578469548,88,38.73,-27.07,64.4,23.17
389,Ancud,75,CL,1578469548,87,-41.87,-73.83,48.2,8.05
390,Xapuri,89,BR,1578469549,72,-10.65,-68.5,72.9,3.13
391,Colares,75,PT,1578469549,93,38.8,-9.45,48.2,8.05
392,Umm Kaddadah,84,SD,1578469549,15,13.6,26.69,74.71,18.7
393,Vallenar,0,CL,1578469549,90,-28.58,-70.76,53.51,1.97
394,Troyes,90,FR,1578469549,93,48.3,4.07,50.0,5.82
395,College,20,US,1578469550,65,64.86,-147.8,-26.0,1.59
396,Yulara,100,AU,1578469550,19,-25.24,130.99,98.6,10.29
397,Maniitsoq,100,GL,1578469550,97,65.42,-52.9,-0.65,22.73
398,Sheopur,18,IN,1578469550,33,25.67,76.7,75.22,10.58
399,Puerto Narino,0,CO,1578469551,100,-3.77,-70.38,75.2,2.24
400,Dongzhen,100,CN,1578469551,90,43.33,129.73,17.49,4.61
401,Laem Sing,20,TH,1578469551,70,12.48,102.07,91.99,9.17
402,Barranquilla,20,CO,1578469551,78,10.98,-74.8,80.6,19.46
403,Nikolayevsk-na-amure,0,RU,1578469552,93,53.14,140.72,-1.75,4.59
404,Metro,63,ID,1578469552,63,-5.11,105.31,89.29,10.56
405,Maningrida,100,AU,1578469552,89,-12.05,134.23,74.91,11.14
406,Vila do Maio,40,CV,1578469552,64,15.13,-23.22,68.0,18.34
407,Pierre,90,US,1578469530,61,44.37,-100.35,18.0,12.75
408,Shitanjing,33,CN,1578469553,46,39.23,106.34,27.97,6.64
409,Bah,54,IN,1578469553,59,26.87,78.59,65.93,14.83
410,Olga,1,US,1578469553,34,34.11,-118.17,57.2,2.48
411,Lagoa,28,PT,1578469553,81,37.14,-8.45,52.0,3.36
412,Sudislavl,97,RU,1578469554,96,57.88,41.71,29.28,7.87
413,Causapscal,100,CA,1578469554,79,48.35,-67.23,14.0,4.81
414,Santa Rosa,0,AR,1578469554,35,-36.62,-64.29,68.65,9.31
415,Port Blair,67,IN,1578469554,76,11.67,92.75,80.4,13.8
416,Gobo,75,JP,1578469554,71,33.89,135.15,59.0,28.86
417,Rio Gallegos,19,AR,1578469555,93,-51.62,-69.22,42.8,6.93
418,Alice Springs,90,AU,1578469555,13,-23.7,133.88,102.2,8.05
419,Flinders,72,AU,1578469555,73,-34.58,150.85,73.99,12.75
420,Kouango,34,CF,1578469555,17,4.99,19.98,95.81,7.36
421,Vredendal,86,ZA,1578469555,53,-31.68,18.49,74.84,10.94
422,Darnah,89,LY,1578469556,63,32.77,22.64,55.69,17.16
423,San Antonio,0,CL,1578469556,93,-33.58,-71.61,59.0,3.36
424,Belmonte,0,PT,1578469556,61,40.36,-7.35,46.99,2.48
425,Egvekinot,76,RU,1578469556,100,66.32,-179.17,-12.1,3.58
426,Labuhan,99,ID,1578469556,61,-2.54,115.51,89.22,0.6
427,Inverness,20,GB,1578469424,86,57.48,-4.23,41.0,13.87
428,Arona,0,IT,1578469557,100,45.76,8.56,41.0,3.36
429,Mbandaka,90,CD,1578469557,45,0.05,18.26,93.09,2.95
430,Dingle,75,PH,1578469557,81,11.0,122.67,78.48,8.79
431,Mehamn,40,NO,1578469557,86,71.03,27.85,33.8,20.8
432,Kaohsiung,40,TW,1578469358,47,22.62,120.31,78.8,8.05
433,Penzance,40,GB,1578469558,100,50.12,-5.53,51.01,6.93
434,Les Cayes,0,HT,1578469558,73,18.19,-73.75,78.85,7.72
435,Kefamenanu,100,ID,1578469558,82,-9.45,124.48,78.24,5.39
436,Lloydminster,90,CA,1578469558,77,53.28,-110.01,-2.2,18.34
437,Xinmin,90,CN,1578469559,73,42.0,122.83,21.2,6.71
438,Jurm,0,AF,1578469559,66,36.86,70.83,16.18,2.55
439,Pacific Grove,90,US,1578469559,87,36.62,-121.92,51.8,4.0
440,Ayagoz,100,KZ,1578469559,93,47.96,80.43,17.31,2.84
441,Batagay,53,RU,1578469560,87,67.65,134.64,-18.04,2.53
442,Jackville,38,CI,1578469560,100,5.21,-4.42,73.4,3.36
443,Petropavlovsk-Kamchatskiy,97,RU,1578469527,57,53.05,158.65,19.4,4.47
444,Pascagoula,1,US,1578469560,78,30.37,-88.56,41.0,2.57
445,Camacha,40,PT,1578469561,63,33.08,-16.33,60.8,5.82
446,Tuxpan,0,MX,1578469561,45,19.56,-103.38,58.12,3.8
447,Sloboda,0,UA,1578469561,85,48.46,24.82,19.4,0.89
448,Road Town,90,VG,1578469360,74,18.42,-64.62,78.8,11.41
449,Batie,31,FR,1578469561,93,45.06,5.82,39.2,9.17
450,Kralendijk,4,BQ,1578469562,74,12.15,-68.27,80.6,16.11
451,Sorland,90,NO,1578469562,66,67.67,12.69,42.8,44.96
452,Maceio,20,BR,1578469555,94,-9.67,-35.74,71.6,4.7
453,Pocatello,1,US,1578469562,85,42.87,-112.44,27.0,5.82
454,Sechura,8,PE,1578469563,86,-5.56,-80.82,70.77,9.51
455,Senneterre,75,CA,1578469563,100,48.39,-77.24,23.0,4.7
456,Dudinka,75,RU,1578469563,84,69.41,86.18,3.2,20.13
457,Dimona,59,IL,1578469563,65,31.07,35.04,52.0,14.0
458,Tual,97,ID,1578469563,77,-5.67,132.75,83.01,12.1
459,Mubarakpur,100,IN,1578469563,54,26.09,83.29,67.24,1.23
460,Maxixe,40,MZ,1578469564,62,-23.86,35.35,89.6,9.17
461,Tahe,0,CN,1578469564,87,52.34,124.71,4.12,3.02
462,Broome,99,GB,1578469564,81,52.47,1.45,54.0,11.41
463,Kargil,22,PK,1578469564,52,34.56,76.13,10.99,2.44
464,Barra do Garcas,33,BR,1578469564,96,-15.89,-52.26,69.51,1.86
465,Caramay,73,PH,1578469565,74,10.18,119.24,80.76,7.72
466,Ntcheu,100,MW,1578469565,73,-14.82,34.64,74.62,8.93
467,Agua Dulce,77,MX,1578469565,94,18.14,-94.15,66.76,5.46
468,Daye,100,CN,1578469566,71,30.1,114.98,44.89,4.85
469,Dinard,90,FR,1578469566,93,48.63,-2.06,54.0,8.05
470,Huadian,100,CN,1578469566,95,42.97,126.75,14.94,5.77
471,Sibolga,49,ID,1578469566,70,1.74,98.78,86.23,1.19
472,Moose Factory,90,CA,1578469567,77,51.26,-80.61,6.8,12.75
473,Sisimiut,100,GL,1578469567,99,66.94,-53.67,-11.43,7.74
474,Mackenzie,90,CA,1578469567,78,55.34,-123.09,12.2,9.17
475,Marshfield,90,US,1578469567,100,42.09,-70.71,35.6,14.25
476,Pedasi,7,PA,1578469567,79,7.53,-80.03,79.52,22.59
477,Tarko-Sale,17,RU,1578469568,84,64.92,77.78,-7.01,9.37
478,Aksarka,0,RU,1578469568,93,66.56,67.8,-4.97,7.25
479,Qiongshan,20,CN,1578469568,69,20.01,110.35,77.0,11.18
480,Vila Franca do Campo,20,PT,1578469568,88,37.72,-25.43,64.4,14.99
481,Amapa,75,HN,1578469568,88,15.09,-87.97,72.0,3.36
482,Bandarbeyla,88,SO,1578469569,72,9.49,50.81,78.69,16.96
483,Mildura,0,AU,1578469569,5,-34.18,142.16,96.8,11.41
484,Ankazobe,75,MG,1578469569,69,-18.32,47.12,77.0,3.36
485,Sioux Falls,1,US,1578469569,84,43.55,-96.7,15.01,6.82
486,Santa Rosalia,20,IT,1578469569,81,38.07,13.27,55.0,3.36
487,Lukang,40,TW,1578469570,64,24.06,120.44,78.01,12.75
488,Paamiut,100,GL,1578469570,84,61.99,-49.67,14.86,29.39
489,Winnemucca,1,US,1578469570,68,40.97,-117.74,28.4,5.82
490,Tokonou,6,GN,1578469570,30,9.65,-9.78,75.65,0.78
491,Carballo,75,ES,1578469570,93,43.21,-8.69,55.99,4.7
492,Kendari,100,ID,1578469571,91,-3.99,122.52,80.22,2.13
493,Bafoulabe,99,ML,1578469571,15,13.81,-10.83,68.5,6.78
494,Sitka,0,US,1578469571,51,37.17,-99.65,34.0,6.62
495,Xiamen,0,CN,1578469571,60,24.46,118.07,68.0,13.42
496,Leiden,90,NL,1578469571,100,52.16,4.48,53.01,18.34
497,Amazar,0,RU,1578469572,97,53.86,120.88,-5.78,2.59
498,Kaka,0,TM,1578469572,32,37.35,59.62,53.8,7.56
499,Kanye,100,BW,1578469572,39,-24.98,25.34,82.24,16.4
500,Fort Payne,1,US,1578469572,92,34.44,-85.72,39.0,3.58
501,Hami,0,CN,1578469573,51,42.84,93.51,22.21,3.29
502,Gidam,19,IN,1578469573,47,18.98,81.4,83.16,5.5
503,Adrar,0,DZ,1578469573,55,27.87,-0.29,39.2,12.75
504,Outlook,100,CA,1578469573,68,51.48,-107.04,9.0,15.99
505,Padang,100,ID,1578469573,63,-0.92,100.36,82.22,2.13
506,Eregli,100,TR,1578469574,97,37.51,34.05,33.55,1.59
507,Kutum,0,SD,1578469574,18,14.2,24.66,73.36,7.36
508,Coahuayana,67,MX,1578469574,37,18.62,-100.35,68.56,3.83
509,Abai,75,KZ,1578469574,86,41.35,68.95,37.4,2.24
510,Arman,100,RU,1578469574,87,59.7,150.17,12.34,8.5
511,Usinsk,98,RU,1578469575,93,66.0,57.56,7.07,16.06
512,San Carlos de Bariloche,40,AR,1578469575,62,-41.13,-71.31,53.6,25.28
513,Karratha,100,AU,1578469575,76,-20.74,116.85,85.5,14.03
514,Balyaga,0,RU,1578469575,90,51.15,108.93,1.38,0.63
515,Hofn,87,IS,1578469575,61,64.25,-15.21,33.57,51.16
516,Bandarban,40,BD,1578469575,56,22.2,92.22,73.4,3.36
517,Saldanha,0,PT,1578469576,73,41.42,-6.55,40.23,1.57
518,Waingapu,0,ID,1578469576,72,-9.65,120.26,84.58,27.56
519,Nizwa,0,OM,1578469576,38,22.93,57.53,65.01,7.94
520,Surt,100,LY,1578469576,64,31.21,16.59,52.32,10.22
521,Salym,89,RU,1578469576,95,60.06,71.48,2.12,5.79
522,Buala,100,SB,1578469577,78,-8.15,159.59,83.1,6.53
523,Bilibino,0,RU,1578469577,88,68.06,166.44,-27.42,3.11
524,Ulaangom,100,MN,1578469577,96,49.98,92.07,-10.59,0.36
525,Peniche,75,PT,1578469577,93,39.36,-9.38,48.2,8.05
526,Meulaboh,100,ID,1578469577,71,4.14,96.13,83.55,9.75
527,Naze,100,NG,1578469578,88,5.43,7.07,73.4,4.59
528,Mandan,90,US,1578469578,84,46.83,-100.89,5.0,8.05
529,Valparaiso,1,US,1578469578,50,41.47,-87.06,30.2,12.75
530,Shizuishan,33,CN,1578469578,46,39.02,106.36,27.97,6.64
531,Wellington,97,NZ,1578469471,62,-41.29,174.78,60.01,4.7
532,Sorong,100,ID,1578469579,97,-0.86,131.25,74.7,2.59
533,Garhi Yasin,0,PK,1578469579,55,27.91,68.51,62.6,4.7
534,Esperance,0,AU,1578469579,53,-33.86,121.89,75.2,21.92
535,Uruzgan,0,AF,1578469580,49,32.93,66.63,24.37,1.34
536,Roald,75,NO,1578469580,70,62.58,6.12,44.01,39.15
537,Punta Ocote,51,HN,1578469580,98,15.2,-87.28,61.5,3.36
538,Paysandu,0,UY,1578469580,73,-32.32,-58.08,64.99,6.69
539,Chifeng,0,CN,1578469580,46,42.27,118.96,19.65,10.47
540,Huilong,100,CN,1578469581,82,31.15,106.5,46.38,6.53
541,Bend,90,US,1578469581,80,44.06,-121.32,41.0,6.93
542,Verkhnevilyuysk,100,RU,1578469581,97,63.45,120.31,-0.09,4.12
543,Swellendam,20,ZA,1578469581,65,-34.02,20.44,77.0,11.41
544,Buin,0,CL,1578469582,67,-33.73,-70.74,57.2,9.17
545,Muros,90,ES,1578469582,100,42.77,-9.06,55.99,6.93
546,Kailua,75,US,1578469582,83,21.39,-157.74,75.2,11.41
547,Mugur-Aksy,67,RU,1578469583,73,50.38,90.44,1.54,2.42
548,Bad Durrheim,75,DE,1578469583,65,48.02,8.53,37.99,5.82
549,Arlit,27,NE,1578469583,14,18.74,7.39,72.32,12.44
550,Weligama,89,LK,1578469583,64,5.97,80.42,85.93,1.66
551,Nabire,100,ID,1578469583,99,-3.36,135.5,74.12,1.68
552,Bourail,29,NC,1578469584,68,-21.57,165.5,73.47,7.29
553,New Plymouth,100,NZ,1578469584,64,-39.06,174.08,57.0,5.99
554,Sao Miguel do Araguaia,100,BR,1578469584,91,-13.28,-50.16,73.36,3.11
555,Victoria,75,BN,1578469584,83,5.28,115.24,84.2,9.17
556,Jacareacanga,99,BR,1578469584,98,-6.22,-57.76,72.77,2.8
